[
  {
    "_id": 1,
    "name": "58Fifty Bistro",
    "address": "5850 Fayetteville Road",
    "city": "Durham",
    "state": "NC",
    "zipCode": 27713,
    "latitude": 35.919938,
    "longitude": -78.930155,
    "frequency": "recurring",
    "type": "open",
    "eventTitle": "Open Mic",
    "eventDay": "Wednesday",
    "eventStart": 8,
    "eventEnd": 11,
    "favorite": false
  },
  {
    "_id": 2,
    "name": "Blue Note Grill",
    "address": "709 Washington Street",
    "city": "Durham",
    "state": "NC",
    "zipCode": 27704,
    "latitude": 36.004379,
    "longitude": -78.902946,
    "frequency": "recurring",
    "type": "open",
    "eventTitle": "Open Mic",
    "eventDay": "Thursday",
    "eventStart": 10,
    "eventEnd": 2,
    "favorite": false
  },
  {
    "_id": 3,
    "name": "Blue Note Grill",
    "address": "709 Washington Street",
    "city": "Durham",
    "state": "NC",
    "zipCode": 27704,
    "latitude": 36.004379,
    "longitude": -78.902946,
    "frequency": "recurring",
    "type": "open",
    "eventTitle": "Blues Jam",
    "eventDay": "Tuesday",
    "eventStart": 7,
    "eventEnd": 11,
    "favorite": false
  },
  {
    "_id": 4,
    "name": "James Joyce",
    "address": "912 W Main St",
    "city": "Durham",
    "state": "NC",
    "zipCode": 27701,
    "latitude": 36.000698,
    "longitude": -78.909868,
    "frequency": "recurring",
    "type": "open",
    "eventTitle": "Open Mic",
    "eventDay": "Sunday",
    "eventStart": 9,
    "eventEnd": 2,
    "favorite": true
  },
  {
    "_id": 5,
    "name": "The Pinhook",
    "address": "117 W Main St",
    "city": "Durham",
    "state": "NC",
    "zipCode": 27701,
    "latitude": 35.995254,
    "longitude": -78.901501,
    "frequency": "recurring",
    "type": "open",
    "eventTitle": "Open Mic",
    "eventDay": "Monday",
    "eventStart": 8,
    "eventEnd": 2,
    "favorite": false
  },
  {
    "_id": 6,
    "name": "The Social Gameroom",
    "address": "1007 W Main St",
    "city": "Durham",
    "state": "NC",
    "zipCode": 27701,
    "latitude": 36.000652,
    "longitude": -78.910782,
    "frequency": "recurring",
    "type": "open",
    "eventTitle": "Open Mic",
    "eventDay": "Tuesday",
    "eventStart": 10,
    "eventEnd": 2,
    "favorite": true
  }
]
